City,Cloudiness,Country,Date,Humidity,Lat,Lng,Max Temp,Wind Speed
Rikitea,24,PF,1608092516,65,-23.12,-134.97,25.71,1.57
Mataura,100,NZ,1608092516,91,-46.19,168.86,15.0,6.71
Zaysan,0,KZ,1608092516,87,47.47,84.87,-16.72,0.31
Qaanaaq,0,GL,1608092517,70,77.48,-69.36,-16.67,3.12
Clonakilty,75,IE,1608092517,93,51.62,-8.87,9.44,12.9
Khatanga,13,RU,1608092517,82,71.97,102.5,-37.13,2.01
Bredasdorp,0,ZA,1608092517,87,-34.53,20.04,10.0,0.5
Dunedin,97,NZ,1608092517,73,-45.87,170.5,17.22,0.89
Byron Bay,90,AU,1608092517,88,-28.65,153.62,24.0,6.2
Chamba,0,IN,1608092518,39,32.57,76.13,9.9,0.48
Ilulissat,80,GL,1608092518,45,69.22,-51.1,-3.0,6.2
Marabu,40,MY,1608092518,79,4.41,114.01,29.0,3.1
Bismarck,90,US,1608092518,85,46.81,-100.78,-6.67,3.1
Port Alfred,2,ZA,1608092314,84,-33.59,26.89,19.44,2.24
Butaritari,74,KI,1608092305,79,3.07,172.79,28.1,8.33
Buala,100,SB,1608092519,80,-8.14,159.59,28.57,4.53
Alamosa,1,US,1608092519,84,37.47,-105.87,-18.0,2.6
Ann Arbor,1,US,1608092351,68,42.28,-83.74,-3.89,3.6
Chokurdakh,100,RU,1608092519,88,70.63,147.92,-29.64,1.62
Geraldton,0,AU,1608092520,47,-28.77,114.6,25.0,8.7
Tocache,98,PE,1608092520,86,-8.18,-76.51,21.23,0.21
Punta Arenas,0,CL,1608092227,66,-53.15,-70.92,9.0,14.9
Ushuaia,75,AR,1608092464,100,-54.8,-68.3,4.0,13.9
Narsaq,50,GL,1608092520,35,60.92,-46.05,4.0,15.4
Myski,100,RU,1608092520,94,53.71,87.8,-11.89,2.16
Busselton,0,AU,1608092305,50,-33.65,115.33,25.0,0.45
Namatanai,54,PG,1608092521,72,-3.67,152.43,29.39,2.31
Thompson,90,CA,1608092308,75,55.74,-97.86,-26.0,1.5
Esso,17,RU,1608092521,88,55.93,158.7,-12.0,1.74
Albany,100,US,1608092256,38,42.6,-73.97,-5.56,0.45
Warrington,100,GB,1608092366,87,53.39,-2.58,9.44,7.2
Rørvik,100,NO,1608092521,91,64.86,11.24,4.47,3.42
Olavarría,0,AR,1608092522,64,-36.89,-60.32,13.89,1.79
Rockport,1,US,1608092319,93,28.02,-97.05,11.67,3.1
Ribeira Grande,100,PT,1608092522,87,38.52,-28.7,16.32,5.72
Guerrero Negro,0,MX,1608092327,39,27.98,-114.06,14.06,4.05
Mar del Plata,0,AR,1608092522,62,-38.0,-57.56,12.78,2.1
São Félix do Xingu,33,BR,1608092523,91,-6.64,-51.99,21.23,0.43
Salme,20,NP,1608092523,61,28.04,85.09,10.0,1.0
Aklavik,100,CA,1608092321,75,68.22,-135.01,-27.0,1.5
Mukhen,88,RU,1608092523,79,48.1,136.1,-17.67,5.27
Tiksi,31,RU,1608092523,86,71.69,128.87,-32.91,1.95
Kapaa,40,US,1608092523,78,22.08,-159.32,26.0,5.1
Lompoc,1,US,1608092249,81,34.64,-120.46,10.56,2.6
Soe,81,ID,1608092524,89,-9.86,124.28,24.83,2.72
Vostok,95,RU,1608092524,87,46.49,135.88,-22.03,2.84
Atuona,6,PF,1608092314,76,-9.8,-139.03,26.19,8.77
Hithadhoo,10,MV,1608092524,71,-0.6,73.08,27.51,4.68
Aykhal,90,RU,1608092326,74,66.0,111.5,-31.0,3.0
Celestún,67,MX,1608092525,89,20.87,-90.4,23.46,2.21
Yellowknife,5,CA,1608092307,65,62.46,-114.35,-37.78,2.6
Maku,100,IR,1608092525,78,39.29,44.45,3.13,0.52
Kibuye,28,RW,1608092525,75,-2.06,29.35,17.31,0.71
Sāveh,100,IR,1608092520,71,35.02,50.36,4.03,2.43
Mahébourg,40,MU,1608092526,83,-20.41,57.7,27.0,7.2
Kruisfontein,1,ZA,1608092526,93,-34.0,24.73,14.44,2.32
Marfino,90,RU,1608092526,92,55.7,37.38,-4.0,3.0
Cape Town,0,ZA,1608092101,77,-33.93,18.42,17.22,5.7
Lianran,40,CN,1608092475,72,24.92,102.48,15.0,8.0
Airai,51,TL,1608092526,100,-8.93,125.41,19.94,1.12
Jamestown,1,US,1608092526,92,42.1,-79.24,-5.0,2.6
Mildura,77,AU,1608092527,31,-34.2,142.15,31.0,5.7
Tasiilaq,100,GL,1608092527,46,65.61,-37.64,-2.0,10.8
Tuatapere,100,NZ,1608092527,91,-46.13,167.68,15.0,6.71
Lagoa,100,PT,1608092527,76,39.05,-27.98,16.16,6.26
Pochutla,47,MX,1608092527,88,15.74,-96.47,22.22,0.89
Talcahuano,0,CL,1608092527,76,-36.72,-73.12,12.0,4.1
East London,0,ZA,1608092528,82,-33.02,27.91,18.0,4.6
Jieshou,36,CN,1608092528,52,33.26,115.36,4.72,2.05
San Rafael,0,AR,1608092528,29,-34.62,-68.33,17.86,1.33
Kaitangata,97,NZ,1608092528,74,-46.28,169.85,17.78,4.92
Anadyr,40,RU,1608092528,72,64.75,177.48,-8.0,9.0
Bandarbeyla,51,SO,1608092528,77,9.49,50.81,23.88,8.55
Energetik,96,RU,1608092529,90,51.74,58.79,-10.46,2.91
Arraial do Cabo,100,BR,1608092529,93,-22.97,-42.03,23.81,3.55
Neepawa,90,CA,1608092529,85,50.23,-99.47,-9.0,2.6
New Norfolk,75,AU,1608092309,47,-42.78,147.06,15.0,5.7
Laguna,1,US,1608092529,81,38.42,-121.42,8.33,0.77
Hilo,1,US,1608092529,69,19.73,-155.09,26.0,2.42
Saint Paul Harbor,1,US,1608092530,86,57.79,-152.41,-1.0,2.6
Tegul'det,90,RU,1608092530,86,57.31,88.17,-23.58,1.32
Leningradskiy,100,RU,1608092311,94,69.38,178.42,-9.61,9.27
Gornopravdinsk,97,RU,1608092530,96,60.05,69.9,-9.52,2.75
Chicama,88,PE,1608092530,75,-7.84,-79.15,20.68,2.12
Qurayyat,40,SA,1608092531,61,31.33,37.34,10.0,3.1
San Patricio,1,US,1608092531,81,28.02,-97.52,11.11,1.5
Lorengau,91,PG,1608092531,75,-2.02,147.27,29.23,2.8
Barrow,1,US,1608092531,69,71.29,-156.79,-22.0,9.3
Tuktoyaktuk,40,CA,1608092532,82,69.45,-133.04,-29.0,4.1
Kavaratti,20,IN,1608092532,74,10.57,72.64,28.0,1.5
Castro,0,BR,1608092532,93,-24.79,-50.01,16.7,0.09
Puerto Ayora,93,EC,1608092532,94,-0.74,-90.35,22.22,1.79
Quang Ngai,97,VN,1608092533,90,15.12,108.8,23.49,4.12
Souillac,40,MU,1608092533,83,-20.52,57.52,27.0,7.2
Dingle,100,PH,1608092533,79,11.0,122.67,28.31,6.37
Taperoá,99,BR,1608092533,78,-7.21,-36.83,22.63,6.75
Gushikawa,90,JP,1608092533,72,26.35,127.87,17.0,3.6
Barra Patuca,69,HN,1608092533,87,15.8,-84.28,24.76,2.09
Inuvik,98,CA,1608092236,75,68.35,-133.72,-27.0,3.1
Luganville,75,VU,1608092534,70,-15.53,167.17,30.0,4.1
Saint-Augustin,100,CA,1608092534,94,51.23,-58.65,-3.85,11.31
Saskylakh,32,RU,1608092534,83,71.92,114.08,-35.82,1.43
Dikson,98,RU,1608092534,89,73.51,80.55,-26.06,1.18
Haines Junction,100,CA,1608092534,84,60.75,-137.51,-13.0,0.5
Hede,23,CN,1608092535,59,33.77,120.25,4.49,4.18
Rushden,100,GB,1608092535,83,52.29,-0.6,8.89,1.79
Salalah,0,OM,1608092535,46,17.02,54.09,23.0,4.1
Norrtälje,90,SE,1608092535,100,59.76,18.7,6.11,3.1
Hasaki,20,JP,1608092536,26,35.73,140.83,11.11,2.1
Torbay,90,CA,1608092536,58,47.67,-52.73,-1.0,20.6
Bambanglipuro,60,ID,1608092536,72,-7.95,110.28,28.63,3.64
Podor,0,MR,1608092536,45,16.65,-14.96,19.0,1.0
Ambon City,40,ID,1608092536,94,-3.7,128.18,26.0,1.5
Clyde River,1,CA,1608092536,77,70.47,-68.59,-18.0,11.3
Masunga,100,BW,1608092536,93,-20.62,27.45,18.58,3.97
Missoula,90,US,1608092530,100,47.02,-113.8,0.0,2.1
Kulgam,0,IN,1608092537,76,33.65,75.02,0.65,0.94
Jiaojiang,100,CN,1608092537,66,28.68,121.44,7.78,5.67
Pevek,100,RU,1608092537,91,69.7,170.31,-12.82,3.12
Mossamedes,23,AO,1608092538,85,-15.2,12.15,18.33,1.17
Nanortalik,97,GL,1608092538,91,60.14,-45.24,-1.58,4.08
Sherlovaya Gora,5,RU,1608092538,89,50.57,116.25,-20.09,0.93
Province of Mantua,100,IT,1608092304,96,45.17,10.78,5.56,0.45
Ilembula,11,TZ,1608092462,83,-8.9,34.58,17.6,2.83
Benavente,90,ES,1608092538,100,42.0,-5.68,8.89,4.1
Assiniboia,100,CA,1608092539,74,49.63,-105.98,-1.0,3.1
Broome,1,US,1608092539,78,42.25,-75.83,-6.67,1.5
Cowra,84,AU,1608092539,75,-33.83,148.68,22.22,0.45
Bambous Virieux,40,MU,1608092539,83,-20.34,57.76,27.78,7.2
Pozo Colorado,4,PY,1608092539,82,-23.49,-58.8,24.2,2.37
Xingyi,89,CN,1608092539,79,24.19,102.82,15.51,3.6
Samarai,2,PG,1608092540,70,-10.62,150.67,28.98,4.56
Krivosheino,100,RU,1608092540,89,57.34,83.93,-22.12,1.83
Kasongo-Lunda,100,CD,1608092540,92,-6.47,16.82,21.38,0.16
Makokou,63,GA,1608092540,96,0.57,12.86,20.36,1.06
Kerman,0,IR,1608092540,74,30.28,57.08,-2.0,2.1
Cockburn Town,0,TC,1608092540,72,21.46,-71.14,25.16,6.43
Husavik,90,IS,1608092540,91,66.04,-17.34,3.0,7.2
Panama City,20,PA,1608092298,88,8.99,-79.52,26.0,2.6
Altona,100,DE,1608092385,93,53.55,9.93,8.33,2.1
Cap Malheureux,3,MU,1608092541,80,-19.98,57.61,27.78,4.47
Tucuruí,99,BR,1608092541,91,-3.77,-49.67,23.01,1.06
Ostrovnoy,100,RU,1608092541,95,68.05,39.51,-6.96,7.29
Butembo,44,CD,1608092541,76,0.15,29.28,13.48,1.33
Tarrafal,20,CV,1608092541,73,15.28,-23.77,22.0,5.1
Hanyang,98,CN,1608092542,76,32.14,105.51,4.44,2.69
Iwaki,55,JP,1608092542,39,37.05,140.88,5.0,3.13
Hobart,75,AU,1608092258,47,-42.88,147.33,15.0,5.7
Rockland,100,US,1608092542,70,41.17,-74.05,-2.22,1.96
Nikolskoye,90,RU,1608092320,98,59.7,30.79,0.0,4.0
Carnarvon,0,AU,1608092313,69,-24.87,113.63,26.0,9.8
Bilibino,100,RU,1608092543,89,68.05,166.44,-21.8,0.31
Hong Kong,45,HK,1608092324,71,22.29,114.16,15.56,0.89
Poronaysk,100,RU,1608092298,79,49.22,143.12,-9.08,7.51
Chowchilla,1,US,1608092543,87,37.12,-120.26,7.78,1.83
Pangody,100,RU,1608092543,90,65.85,74.49,-20.77,7.07
Naryan-Mar,100,RU,1608092543,96,67.67,53.09,-9.28,7.82
Kenai,90,US,1608092367,92,60.55,-151.26,-2.78,1.5
Seidu,74,SL,1608092544,100,9.02,-10.6,19.18,1.01
Bluff,100,NZ,1608092544,91,-46.6,168.33,15.0,6.71
Seydi,0,TM,1608092544,90,39.48,62.91,-2.52,4.41
Yabassi,75,CM,1608092544,100,4.46,9.97,26.0,1.5
Bethel,1,US,1608092544,41,41.37,-73.41,-3.89,3.1
Iqaluit,90,CA,1608092544,85,63.75,-68.51,-7.0,4.6
Saint-Philippe,52,RE,1608092305,78,-21.36,55.77,27.0,2.1
Talnakh,40,RU,1608092545,83,69.49,88.4,-21.0,9.0
Sinjār,56,IQ,1608092545,90,36.32,41.88,10.39,5.84
Morehead,75,US,1608092545,69,37.27,-87.18,5.0,1.5
Komatipoort,100,ZA,1608092545,96,-25.43,31.95,20.56,2.77
Hermanus,0,ZA,1608092309,87,-34.42,19.23,13.89,1.34
Jackson,90,US,1608092546,93,42.42,-122.83,7.0,1.5
Severo-Kuril'sk,95,RU,1608092546,90,50.68,156.12,-0.37,6.59
Rey Bouba,2,CM,1608092546,24,8.67,14.18,20.75,1.11
Beaverlodge,90,CA,1608092546,84,55.22,-119.44,-13.0,3.6
Røros,100,NO,1608092547,92,62.57,11.38,-8.0,1.5
Meulaboh,98,ID,1608092547,70,4.14,96.13,27.45,2.5
Alto Araguaia,100,BR,1608092547,88,-17.31,-53.22,20.94,1.8
Banda Aceh,89,ID,1608092547,68,5.56,95.32,28.48,1.21
Buraidah,0,SA,1608092521,62,26.33,43.98,15.0,2.6
Grand Gaube,4,MU,1608092547,80,-20.01,57.66,27.78,4.47
Lebu,0,CL,1608092548,80,-37.62,-73.65,11.09,9.31
George Town,20,MY,1608092548,78,5.41,100.34,30.0,1.0
Yulara,9,AU,1608092548,22,-25.24,130.99,36.0,5.7
Raudeberg,29,NO,1608092549,85,61.99,5.14,7.22,7.48
Yurty,72,RU,1608092549,88,56.05,97.63,-15.7,6.14
Walvis Bay,39,NA,1608092549,82,-22.96,14.51,16.11,3.6
General Roca,0,AR,1608092549,9,-39.03,-67.58,48.0,2.6
Newport,100,GB,1608092549,95,51.59,-3.0,10.56,2.24
Wakkanai,75,JP,1608092549,68,45.41,141.67,-4.0,12.3
Caravelas,14,BR,1608092550,92,-17.71,-39.25,22.43,1.77
Vlorë,91,AL,1608092550,70,40.47,19.49,12.57,1.29
Smithers,90,CA,1608092550,92,54.78,-127.17,-2.0,3.6
Godda,13,IN,1608092550,41,24.83,87.22,23.23,2.25
Ola,58,RU,1608092550,86,59.58,151.28,-20.84,7.76
Half Moon Bay,90,US,1608092550,87,37.46,-122.43,11.67,2.35
São Filipe,82,CV,1608092550,72,14.9,-24.5,23.16,3.88
Cabedelo,40,BR,1608092551,88,-6.98,-34.83,25.0,3.1
Keti Bandar,0,PK,1608092551,30,24.14,67.45,17.23,9.11
Provincia di Imperia,90,IT,1608092551,87,43.97,7.78,10.0,7.7
Odienné,49,CI,1608092551,75,9.51,-7.57,22.48,1.33
Eyl,11,SO,1608092328,67,7.98,49.82,23.96,8.62
Manosque,76,FR,1608092551,82,43.83,5.79,8.89,1.79
Roswell,90,US,1608092536,70,34.02,-84.36,7.22,3.6
Dicabisagan,98,PH,1608092552,83,17.08,122.42,25.4,2.44
Nemuro,75,JP,1608092552,38,43.32,145.57,-3.0,6.7
Chapleau,48,CA,1608092552,86,47.84,-83.4,-13.55,2.29
Mnogovershinnyy,100,RU,1608092552,91,53.94,139.92,-20.97,4.95
North Bend,1,US,1608092552,100,43.41,-124.22,9.44,1.5
Vaini,75,TO,1608092552,78,-21.2,-175.2,27.0,8.2
Ketchikan,90,US,1608092552,87,55.34,-131.65,6.0,7.7
Diffa,75,NE,1608092553,31,13.32,12.61,19.17,4.04
Kiryat Gat,49,IL,1608092283,2,31.61,34.76,15.0,1.34
Alice,1,US,1608092553,81,27.75,-98.07,10.0,3.6
Hamilton,90,US,1608092242,90,39.18,-84.53,0.0,4.1
Châteaudun,43,FR,1608092553,100,48.08,1.33,5.0,4.1
Vao,1,NC,1608092553,74,-22.67,167.48,24.45,9.44
Karonga,60,MW,1608092554,72,-9.93,33.93,24.32,1.58
Pendleton,90,US,1608092554,75,45.67,-118.79,8.0,5.1
Atambua,78,ID,1608092462,87,-9.11,124.89,26.16,2.58
Grindavik,90,IS,1608092554,70,63.84,-22.43,6.0,8.2
Atar,0,MR,1608092554,29,20.52,-13.05,17.95,3.89
Irondequoit,90,US,1608092554,53,43.21,-77.58,-3.33,1.5
Pisco,0,PE,1608092489,88,-13.7,-76.22,19.0,5.7
Clovis,1,US,1608092555,76,36.83,-119.7,9.0,1.6
Trincomalee,53,LK,1608092555,79,8.57,81.23,26.43,3.37
Garmsār,85,IR,1608092555,67,35.22,52.34,4.31,2.44
Isangel,40,VU,1608092306,58,-19.55,169.27,31.0,6.2
Turukhansk,100,RU,1608092555,88,65.82,87.98,-26.26,6.16
Esperance,66,AU,1608092555,46,-33.87,121.9,21.0,6.7
Esim,76,GH,1608092100,89,4.87,-2.24,25.34,2.88
Terrace,90,CA,1608092556,92,54.52,-128.6,0.0,1.5
Vilcún,0,CL,1608092556,100,-38.65,-72.23,9.0,1.0
Fort Nelson,90,CA,1608092556,77,58.81,-122.7,-19.0,2.1
Bonnyville,90,CA,1608092556,78,54.27,-110.73,-11.0,1.5
Suzun,100,RU,1608092556,93,53.78,82.31,-16.87,2.14
Gaya,75,IN,1608092557,88,24.78,85.0,17.0,1.7
Bengkulu,99,ID,1608092557,92,-3.8,102.27,25.16,6.5
Khāsh,0,IR,1608092557,56,28.22,61.22,4.69,2.23
Ossora,100,RU,1608092557,95,59.24,163.07,-9.47,7.92
Lesnoy,100,RU,1608092557,89,57.62,63.08,-8.12,3.75
Santarém,20,BR,1608092557,94,-2.44,-54.71,23.0,0.88
Hofn,100,IS,1608092557,92,64.25,-15.21,3.77,9.19
Norman Wells,40,CA,1608092323,75,65.28,-126.83,-28.0,4.6
Northam,100,GB,1608092558,91,51.03,-4.22,10.56,5.81
Provideniya,90,RU,1608092306,79,64.38,-173.3,-7.0,6.0
Changde,87,CN,1608092558,54,29.05,111.68,6.62,3.54
Orbetello,20,IT,1608092558,93,42.44,11.22,6.0,3.6
Vardø,90,NO,1608092558,92,70.37,31.11,-1.0,10.3
Batemans Bay,90,AU,1608092558,93,-35.72,150.18,21.67,0.89
Iwanai,100,JP,1608092559,91,42.97,140.51,-3.94,5.8
Asău,0,RO,1608092559,100,46.43,26.4,0.0,1.25
Totness,28,SR,1608092559,86,5.88,-56.32,25.07,2.41
Xiangfan,0,CN,1608092559,48,32.04,112.14,7.04,2.39
Avarua,100,CK,1608092281,78,-21.21,-159.78,28.0,5.1
Akçaabat,75,TR,1608092559,72,41.02,39.57,15.0,1.5
Zapolyarnyy,90,RU,1608092559,100,69.42,30.81,-4.0,4.1
Altay,14,CN,1608092559,77,47.87,88.12,-13.7,0.49
Port Moresby,40,PG,1608092560,49,-9.44,147.18,34.0,7.7
Havre-St-Pierre,1,CA,1608092560,61,50.23,-63.6,-11.0,8.2
Hirara,75,JP,1608092560,82,24.8,125.28,18.0,8.2
Flin Flon,100,CA,1608092341,93,54.77,-101.86,-17.42,2.54
Kūstī,0,SD,1608092560,24,13.16,32.66,20.28,4.81
Taltal,19,CL,1608092560,77,-25.4,-70.48,15.58,0.66
Cherskiy,100,RU,1608092561,88,68.75,161.3,-28.03,4.14
Saint-Pierre,20,RE,1608092327,78,-21.34,55.48,27.0,2.1
Birao,62,CF,1608092561,23,10.28,22.79,19.54,2.85
Ternate,62,ID,1608092561,74,0.8,127.4,28.88,5.57
Maragogi,86,BR,1608092561,85,-9.01,-35.22,24.51,3.1
Bridlington,100,GB,1608092561,93,54.08,-0.19,6.11,3.6
Los Llanos de Aridane,0,ES,1608092562,67,28.66,-17.92,16.0,4.6
Tigil',80,RU,1608092562,94,57.8,158.67,-7.11,3.28
Moerai,72,PF,1608092562,72,-22.43,-151.33,26.86,4.64
Amapá,94,BR,1608092562,94,1.0,-52.0,22.62,0.88
Payo,100,ID,1608092562,76,-3.75,103.64,27.71,1.19
Padang,84,ID,1608092562,73,-0.95,100.35,28.0,3.15
Quesnel,90,CA,1608092563,69,53.0,-122.5,3.0,4.1
Srīvardhan,10,IN,1608092563,61,18.03,73.02,27.5,1.5
Te Anau,100,NZ,1608092563,74,-45.42,167.72,15.1,2.29
Hermosillo,5,MX,1608092427,33,29.07,-110.97,14.44,3.6
Comodoro Rivadavia,0,AR,1608092563,33,-45.87,-67.5,17.0,6.2
Saint George,1,US,1608092306,43,37.1,-113.58,3.33,2.1
Havelock,75,US,1608092563,75,34.88,-76.9,8.33,9.3
Port Lincoln,77,AU,1608092564,69,-34.73,135.87,18.51,5.4
Galesong,20,ID,1608092564,83,-5.32,119.37,28.0,3.1
Margate,72,GB,1608092564,86,51.38,1.39,8.89,1.34
Honāvar,5,IN,1608092564,52,14.28,74.45,28.18,2.7
Gaza,50,PS,1608092564,100,31.5,34.47,15.0,7.5
Verkhnevilyuysk,57,RU,1608092565,86,63.45,120.32,-29.49,2.26
Sergeevka,99,KZ,1608092565,92,53.88,67.42,-12.34,5.31
Calamar,20,CO,1608092565,100,10.25,-74.91,26.0,2.1
Lüderitz,0,NA,1608092565,77,-26.65,15.16,16.0,5.7
Mocuba,98,MZ,1608092565,90,-16.84,36.99,24.46,1.4
Pen,40,IN,1608092565,83,18.75,73.08,25.0,2.04
Promyshlennovskiy,90,RU,1608092566,84,55.48,86.2,-14.0,3.0
Taksimo,100,RU,1608092566,79,56.34,114.88,-28.37,0.69
Cidreira,19,BR,1608092566,92,-30.18,-50.21,22.08,5.43
La Ronge,100,CA,1608092566,84,55.1,-105.28,-16.0,2.1
San Juan,0,AR,1608092566,21,-31.54,-68.54,22.48,3.21
Voinka,100,UA,1608092567,84,45.87,33.99,2.37,5.58
Kumba,98,CM,1608092567,94,4.64,9.45,22.63,0.58
Beringovskiy,93,RU,1608092567,95,63.05,179.32,-11.1,4.34
Ponta do Sol,20,PT,1608092305,67,32.67,-17.1,16.67,0.5
São João da Barra,100,BR,1608092567,86,-21.64,-41.05,24.02,7.15
Labuhan,46,ID,1608092568,68,-6.88,112.21,29.82,2.51
Calahorra,0,ES,1608092568,93,42.31,-1.97,6.0,4.93
Jalu,0,LY,1608092568,82,29.03,21.55,9.91,2.8
Ancud,40,CL,1608092568,75,-41.87,-73.82,8.33,3.6
Kloulklubed,90,PW,1608092568,94,7.04,134.26,25.0,4.1
Pergamino,0,AR,1608092568,78,-33.89,-60.57,16.11,0.89
College,90,US,1608092478,66,64.86,-147.8,-11.0,1.5
Biasca,75,CH,1608092569,100,46.36,8.97,6.11,1.34
Lewisporte,90,CA,1608092569,85,49.25,-55.05,-3.0,15.4
Mackenzie,90,CA,1608092569,96,55.3,-123.17,0.0,5.1
Ushtobe,0,KZ,1608092569,86,45.25,77.98,-12.97,0.97
Champerico,4,GT,1608092569,96,14.3,-91.92,20.0,1.67
Karratha,22,AU,1608092500,48,-20.74,116.85,32.21,3.59
Miandrivazo,94,MG,1608092570,60,-19.52,45.47,28.43,0.78
Micheweni,53,TZ,1608092570,79,-4.97,39.83,26.88,4.82
Boguchany,0,RU,1608092570,83,58.38,97.45,-24.52,3.58
Okmulgee,90,US,1608092570,99,35.62,-95.96,0.0,2.36
Zliten,86,LY,1608092570,67,32.47,14.57,13.78,3.55
Kahului,40,US,1608092341,61,20.89,-156.47,27.0,8.2
Parabel',96,RU,1608092570,87,58.7,81.48,-23.64,3.28
Mandalgovi,0,MN,1608092571,83,45.76,106.27,-12.58,5.4
Muros,100,ES,1608092571,96,42.78,-9.06,11.67,1.34
Tabas,1,IR,1608092571,64,33.6,56.92,2.0,1.0
Upernavik,0,GL,1608092303,84,72.79,-56.15,-9.25,3.83
Port Elizabeth,0,ZA,1608092571,82,-33.92,25.57,18.0,4.6
Ballangen,13,NO,1608092571,86,68.34,16.83,-1.0,6.2
Nome,90,US,1608092572,85,64.5,-165.41,-7.0,8.7
Xining,74,CN,1608092572,79,36.62,101.77,-8.39,1.72
Khandyga,100,RU,1608092572,77,62.67,135.6,-41.75,0.16
Majene,100,ID,1608092572,60,-3.54,118.97,30.59,4.93
Alofi,90,NU,1608092572,83,-19.06,-169.92,27.0,9.8
Sawākin,36,SD,1608092572,76,19.11,37.33,25.62,2.97
Mandurah,58,AU,1608092409,32,-32.55,115.7,28.89,3.1
Pinega,86,RU,1608092573,96,64.7,43.39,-11.9,2.26
Anshun,99,CN,1608092359,81,26.25,105.93,2.05,3.52
Cabo San Lucas,5,MX,1608092405,63,22.89,-109.91,18.33,1.5
Ulladulla,75,AU,1608092441,74,-35.35,150.47,27.0,6.2
Nakamura,90,JP,1608092573,62,32.98,132.93,5.95,5.64
Van,75,TR,1608092305,81,38.49,43.38,6.0,1.5
Ft. Pierce,75,US,1608092574,93,27.45,-80.33,21.11,2.1
Korla,64,CN,1608092574,83,41.76,86.15,-4.01,0.14
Darnah,69,LY,1608092574,77,32.77,22.64,16.27,6.94
Chui,58,UY,1608092307,82,-33.7,-53.46,17.53,4.5
Mahibadhoo,48,MV,1608092574,70,3.78,72.97,28.03,3.51
Briançon,99,FR,1608092574,80,44.9,6.65,4.44,1.46
Tateyama,40,JP,1608092574,45,34.98,139.87,9.0,9.3
Saint-Paul,75,RE,1608092575,74,-21.01,55.27,27.0,9.3
Villa Rica,100,US,1608092537,86,33.73,-84.92,6.67,1.34
Batesville,90,US,1608092402,90,35.77,-91.64,0.0,1.41
Gediz,80,TR,1608092527,85,39.04,29.41,5.65,2.84
Katherine,73,AU,1608092575,83,-14.47,132.27,27.0,5.7
Viedma,67,AR,1608092502,72,-40.81,-63.0,13.33,5.06
Hambantota,20,LK,1608092576,88,6.12,81.12,27.0,1.5
Mayumba,100,GA,1608092576,91,-3.43,10.66,24.92,3.41
Vila Franca do Campo,40,PT,1608092576,82,37.72,-25.43,15.0,2.1
San Cristobal,40,VE,1608092576,83,7.77,-72.22,25.0,2.1
Luwuk,100,ID,1608092576,60,-0.95,122.79,31.69,0.05
Sioux Lookout,90,CA,1608092577,84,50.1,-91.92,-15.0,2.1
Arlit,0,NE,1608092577,27,18.74,7.39,18.38,3.09
Catuday,84,PH,1608092577,72,16.29,119.81,27.77,2.38
Bavleny,66,RU,1608092577,97,56.4,39.56,-9.24,1.34
Charagua,97,BO,1608092577,85,-19.8,-63.22,20.21,1.03
Marsh Harbour,0,BS,1608092577,78,26.54,-77.06,24.3,3.76
Cedar City,1,US,1608092577,78,37.68,-113.06,-8.0,1.5
Galle,34,LK,1608092578,71,6.04,80.22,27.68,3.57
Mukdahan,40,TH,1608092578,60,16.58,104.5,24.0,3.1
Houma,90,US,1608092578,87,29.6,-90.72,12.22,4.1
Umluj,0,SA,1608092578,47,25.02,37.27,19.29,5.73
Yumen,20,CN,1608092578,84,40.28,97.2,-8.73,2.07
Katsuura,40,JP,1608092578,45,35.13,140.3,10.56,9.3
Homa Bay,75,KE,1608092579,68,-0.53,34.46,20.0,2.1
Norfolk,76,US,1608092579,44,42.17,-71.25,-3.33,3.02
Ugoofaaru,49,MV,1608092308,67,5.67,73.0,27.82,5.58
Porto Belo,75,BR,1608092579,94,-27.16,-48.55,23.89,2.1
Djambala,100,CG,1608092579,96,-2.54,14.75,19.56,1.35
Harper,97,LR,1608092579,85,4.38,-7.72,25.52,2.49
Cabrero,0,CL,1608092580,51,-37.03,-72.4,16.0,5.7
Vzmorye,75,RU,1608092580,86,54.7,20.24,3.33,3.0
Zhigansk,37,RU,1608092580,81,66.77,123.37,-40.21,1.63
Christchurch,29,NZ,1608092302,36,-43.53,172.63,24.0,6.2
Kadirli,100,TR,1608092580,82,37.37,36.1,13.33,0.89
Doha,20,QA,1608092293,93,25.29,51.53,18.0,0.5
Vicuña,0,CL,1608092580,93,-30.03,-70.71,13.0,2.1
Coquimbo,0,CL,1608092333,93,-29.95,-71.34,13.0,2.1
Alugan,93,PH,1608092581,83,12.22,125.48,27.27,5.16
Kouroussa,97,GN,1608092581,65,10.65,-9.88,24.71,1.63
Palu,95,ID,1608092581,54,-0.89,119.87,31.64,2.64
Skibbereen,75,IE,1608092581,93,51.55,-9.27,9.0,12.9
Pingdu,0,CN,1608092581,37,36.78,119.95,2.0,5.0
Acapulco de Juárez,75,MX,1608092550,74,16.86,-99.89,27.0,4.1
Puerto Nariño,40,CO,1608092582,100,-3.77,-70.38,24.0,0.05
Qaqortoq,65,GL,1608092582,35,60.72,-46.03,4.0,15.4
Venado Tuerto,0,AR,1608092416,66,-33.75,-61.97,16.11,3.58
Cam Ranh,40,VN,1608092582,78,11.92,109.16,27.0,7.7
Saldanha,0,ZA,1608092583,82,-33.01,17.94,14.0,3.6
Freeport,1,US,1608092383,46,40.66,-73.58,-0.56,3.6
Khao Wong,20,TH,1608092583,60,16.7,104.09,28.33,3.1
Wagar,25,SD,1608092583,89,16.15,36.2,18.12,2.7
Springdale,90,US,1608092583,100,36.19,-94.13,-1.67,4.1
Kavieng,81,PG,1608092583,68,-2.57,150.8,29.59,2.16
Moose Factory,1,CA,1608092583,75,51.26,-80.61,-27.0,3.6
Mikhaylovka,100,RU,1608092584,90,50.06,43.24,-5.56,2.24
Portneuf,7,CA,1608092584,58,46.69,-71.89,-18.89,2.1
San Isidro,0,PE,1608092584,82,-12.12,-77.05,20.0,4.1
Huarmey,97,PE,1608092584,78,-10.07,-78.15,20.45,2.03
Waingapu,88,ID,1608092345,67,-9.66,120.26,29.92,2.28
Havøysund,75,NO,1608092584,90,71.0,24.66,0.0,14.9
Firovo,100,RU,1608092584,98,57.48,33.7,-2.68,2.61
Charters Towers,96,AU,1608092585,42,-20.1,146.27,32.7,5.5
Oranzherei,75,RU,1608092585,79,45.85,47.57,-5.0,5.0
Takaka,0,NZ,1608092311,70,-40.85,172.8,20.56,3.13
Saquarema,100,BR,1608092585,93,-22.92,-42.51,23.94,3.09
Dawlatabad,0,AF,1608092585,85,36.41,64.91,-0.89,1.47
Olinda,40,BR,1608092585,69,-8.01,-34.86,26.0,2.6
Palmas,20,BR,1608092585,94,-10.21,-48.36,25.0,2.6
Pouébo,37,NC,1608092586,65,-20.4,164.57,27.26,5.91
Flinders,64,AU,1608092586,78,-34.58,150.86,27.78,4.02
Syava,100,RU,1608092586,97,58.01,46.32,-7.01,1.56
San Policarpo,94,PH,1608092586,82,12.18,125.51,27.41,5.15
Camacha,75,PT,1608092586,72,33.08,-16.33,18.0,8.7
Den Helder,90,NL,1608092586,100,52.96,4.76,6.0,5.1
Zhireken,44,RU,1608092586,81,52.82,117.31,-23.96,1.5
Tafresh,100,IR,1608092587,85,34.69,50.01,1.38,0.59
Vagay,100,RU,1608092587,95,57.94,69.02,-11.48,2.74
Nueve de Julio,0,AR,1608092411,70,-35.44,-60.88,16.11,0.89
Saurimo,95,AO,1608092587,97,-9.66,20.39,16.45,1.59
Scarborough,100,GB,1608092317,94,54.28,-0.4,6.11,0.89
Äänekoski,90,FI,1608092587,100,62.69,25.82,1.0,3.6
Kirensk,100,RU,1608092588,94,57.79,108.11,-11.32,4.12
Dolores,0,AR,1608092588,76,-36.31,-57.68,11.18,3.53
Vila Velha,20,BR,1608092588,78,-20.33,-40.29,25.0,4.1
Sumenep,29,ID,1608092588,65,-7.02,113.87,30.32,1.73
Palmer,20,US,1608092589,35,42.16,-72.33,-3.33,4.1
Natal,20,BR,1608092392,78,-5.79,-35.21,26.0,4.6
Ouargaye,66,BF,1608092589,21,11.5,0.06,23.05,3.11
Saint-Louis,0,SN,1608092589,45,16.33,-15.0,19.0,1.0
Faanui,37,PF,1608092589,76,-16.48,-151.75,27.07,8.26
Ajmer,0,IN,1608092104,44,26.45,74.63,14.51,3.83
Bantul,60,ID,1608092590,72,-7.89,110.33,28.91,3.65
Weligama,34,LK,1608092590,72,5.97,80.42,27.7,3.7
Zyryanka,100,RU,1608092590,86,65.75,150.85,-30.17,4.57
Pucallpa,94,PE,1608092590,85,-8.38,-74.55,23.55,0.94
Port Hardy,90,CA,1608092590,93,50.7,-127.42,8.0,2.1
Mollendo,98,PE,1608092590,82,-17.02,-72.01,19.86,2.72
Iquitos,0,PE,1608092591,94,-3.75,-73.25,24.0,0.48
Médéa,20,DZ,1608092342,93,36.26,2.75,9.0,2.37
Alice Springs,88,AU,1608092543,13,-23.7,133.88,38.0,5.7
Melchor de Mencos,0,GT,1608092591,100,17.07,-89.15,21.0,1.1
Valparaíso,0,CL,1608092435,87,-33.04,-71.63,12.0,3.6
Udachny,90,RU,1608092591,74,66.42,112.4,-31.0,3.0
Raja,56,SS,1608092592,28,8.46,25.68,17.89,1.89
Fairview,1,US,1608092592,42,40.81,-74.0,1.0,3.1
Merauke,43,ID,1608092592,78,-8.47,140.33,28.63,7.39
Ashland,1,US,1608092592,63,40.82,-82.27,-1.67,4.1
Atasū,12,KZ,1608092592,85,48.68,71.64,-19.61,0.76
Maniitsoq,55,GL,1608092592,90,65.42,-52.9,-3.69,4.29
Ust-Kuyga,99,RU,1608092593,80,70.02,135.6,-34.27,0.49
Gribanovskiy,91,RU,1608092593,92,51.46,41.98,-6.67,2.29
Obuasi,35,GH,1608092593,100,6.21,-1.66,21.67,0.74
Ughelli,16,NG,1608092593,96,5.49,6.01,23.82,0.57
Ilām,0,NP,1608092593,54,26.92,87.92,15.76,1.44
Kokopo,37,PG,1608092593,76,-4.35,152.26,28.94,2.9
Bela Vista,26,BR,1608092594,79,-22.11,-56.52,23.75,2.44
Port Macquarie,75,AU,1608092346,88,-31.43,152.92,25.0,6.7
Gamba,100,GA,1608092594,91,-2.65,10.0,24.75,1.36
Luebo,100,CD,1608092594,98,-5.35,21.42,20.94,0.75
Bathsheba,40,BB,1608092594,83,13.22,-59.52,25.0,1.5
Arrondissement de Clermont,90,FR,1608092594,100,49.5,2.42,7.0,3.1
Verkhoyansk,100,RU,1608092595,72,67.54,133.38,-35.17,0.74
Barcelos,75,PT,1608092595,82,41.54,-8.62,14.0,13.4
Sandwick,23,GB,1608092595,81,60.0,-1.25,8.0,4.1
Westport,1,US,1608092453,42,41.14,-73.36,-1.0,3.6
Stornoway,91,GB,1608092595,70,58.21,-6.39,8.0,6.2
Canmore,88,CA,1608092351,73,51.08,-115.35,0.0,3.1
Herat Province,0,AF,1608092595,85,34.5,62.0,-5.0,1.0
Sorong,100,ID,1608092596,75,-0.88,131.25,28.94,4.72
Batangafo,37,CF,1608092596,24,7.3,18.28,20.51,0.51
Yangi Marg`ilon,75,UZ,1608092596,86,40.43,71.72,-1.0,0.9
Fairbanks,75,US,1608092596,66,64.84,-147.72,-11.0,2.1
Santo Tomas,40,PH,1608092597,55,14.11,121.14,32.78,3.1
Sirte,13,LY,1608092597,66,31.21,16.59,15.21,1.1
Seoul,1,KR,1608092425,32,37.57,126.98,-5.0,5.18
Sola,40,VU,1608092597,75,-13.88,167.55,32.0,3.6
Arroyo de la Encomienda,0,ES,1608092597,80,41.61,-4.8,7.22,4.6
New Port Richey,6,US,1608092597,3,28.24,-82.72,15.56,2.61
Morros,100,BR,1608092597,66,-9.45,-46.3,25.08,1.37
Binga,100,ZW,1608092598,84,-17.62,27.34,23.34,2.65
Pelym,98,RU,1608092598,95,61.01,62.0,-9.4,2.43
Sitka,90,US,1608092598,56,57.05,-135.33,7.0,5.1
Longyearbyen,0,SJ,1608092407,60,78.22,15.64,-15.0,10.3
California City,1,US,1608092598,51,35.13,-117.99,7.78,4.1
Dali,2,CN,1608092599,46,25.7,100.18,15.23,1.95
Mount Gambier,90,AU,1608092322,93,-37.83,140.77,14.0,6.2
Port Blair,100,IN,1608092599,75,11.67,92.75,28.69,6.06
Erdenet,0,MN,1608092599,86,49.03,104.08,-13.46,2.2
Nālūt,100,LY,1608092599,44,30.33,10.85,10.77,3.61
Maningrida,100,AU,1608092599,56,-12.07,134.27,32.27,2.85
Pemangkat,100,ID,1608092311,69,1.17,108.97,28.66,2.56
Yamada,10,JP,1608092600,76,39.47,141.95,0.7,8.47
Port Augusta,42,AU,1608092600,50,-32.5,137.77,32.22,7.2
Le Port,75,RE,1608092499,74,-20.94,55.29,27.0,9.3
South Venice,1,US,1608092600,93,27.05,-82.42,17.22,2.1
Kandrian,100,PG,1608092600,67,-6.22,149.55,29.7,2.16
Luang Prabang,20,LA,1608092600,73,19.89,102.13,22.0,0.43
Nantucket,1,US,1608092493,43,41.28,-70.1,1.0,6.7
Shumikha,100,RU,1608092601,93,55.23,63.3,-9.24,3.7
Manche,0,FR,1608092601,100,49.0,-1.17,5.0,4.1
Tsimmerbude,75,RU,1608092601,86,54.67,20.13,3.33,3.0
Rosarito,5,MX,1608092601,71,32.33,-117.03,15.0,2.97
Pemba,40,MZ,1608092601,94,-12.97,40.52,26.0,2.6
Batticaloa,35,LK,1608092601,68,7.71,81.69,27.3,2.94
Mariehamn,90,AX,1608092369,100,60.1,19.93,6.0,3.6
Koulamoutou,93,GA,1608092602,95,-1.13,12.47,21.41,0.61
Mīzan Teferī,0,ET,1608092602,64,6.98,35.58,16.79,1.22
Fukuechō,75,JP,1608092602,67,32.69,128.84,5.0,4.6
Berlevåg,99,NO,1608092339,93,70.86,29.09,0.48,9.89
Mala Danylivka,75,UA,1608092602,92,50.06,36.17,-1.0,3.0
Nhulunbuy,75,AU,1608092603,83,-12.23,136.77,27.0,4.1
Srandakan,59,ID,1608092603,72,-7.94,110.25,28.56,3.48
Kismayo,27,SO,1608092603,80,-0.36,42.55,25.89,6.88
Shirgaon,40,IN,1608092603,78,19.7,72.7,23.0,5.58
Kununurra,79,AU,1608092603,42,-15.77,128.73,37.0,2.6
Gorontalo,100,ID,1608092603,67,0.54,123.06,30.77,3.29
Garissa,12,KE,1608092604,83,-0.45,39.64,23.75,1.99
Saint-François,90,FR,1608092604,100,46.42,3.91,5.0,1.5
Nioro,1,GM,1608092604,31,13.35,-15.75,18.92,2.31
Batagay-Alyta,95,RU,1608092333,51,67.8,130.41,-34.2,0.48
Bristol,1,US,1608092604,45,41.83,-71.17,-2.78,2.1
Ullapool,79,GB,1608092604,97,57.9,-5.16,1.67,3.22
Belturbet,100,IE,1608092604,93,54.1,-7.45,9.44,6.26
Monrovia,100,LR,1608092353,81,6.3,-10.8,26.29,2.05
Ust'-Ilimsk,100,RU,1608092605,89,58.0,102.66,-18.48,5.36
Yar-Sale,100,RU,1608092605,91,66.83,70.83,-19.66,5.95
Chepareria,42,KE,1608092605,45,1.31,35.2,14.77,2.17
Caxias do Sul,1,BR,1608092605,93,-29.17,-51.18,22.78,1.07
Grand Forks,90,US,1608092605,85,47.94,-97.43,-8.0,3.6
Ferzikovo,90,RU,1608092606,100,54.52,36.76,-3.0,1.0
Waddān,41,LY,1608092606,68,29.16,16.14,10.3,2.61
Bontang,100,ID,1608092606,63,0.13,117.5,30.43,1.38
Hay River,100,CA,1608092606,75,60.82,-115.8,-27.0,2.1
Kaoma,85,ZM,1608092606,96,-14.78,24.8,16.94,2.1
Chilliwack,100,CA,1608092308,70,49.17,-121.94,9.0,2.1
Lodja,15,CD,1608092607,96,-3.48,23.43,19.78,0.13
Vaitape,37,PF,1608092431,75,-16.52,-151.75,27.53,8.27
Zhangye,0,CN,1608092607,83,38.93,100.45,-7.08,0.64
Damara,20,CF,1608092607,94,4.96,18.7,23.0,1.14
Tecpan,0,GT,1608092607,72,14.76,-90.99,18.0,4.1
Enshi,92,CN,1608092607,55,30.3,109.48,8.31,0.22
Gunjur,0,GM,1608092608,82,13.2,-16.73,19.0,2.1
Mporokoso,75,ZM,1608092608,91,-9.37,30.12,16.44,0.54
Susanville,75,US,1608092608,89,40.42,-120.65,1.0,1.5
Praia,20,CV,1608092608,73,14.92,-23.51,22.0,5.1
Pandan,77,PH,1608092608,71,14.05,124.17,28.72,6.56
Klaksvík,94,FO,1608092326,100,62.23,-6.59,6.0,2.6
Sabha,98,LY,1608092609,49,27.04,14.43,9.71,2.96
Saint-Prosper,51,CA,1608092609,70,46.21,-70.48,-19.0,2.1
Sterling,40,US,1608092609,68,39.01,-77.43,-1.11,1.5
Mabaruma,96,GY,1608092609,98,8.2,-59.78,22.33,0.49
Tiznit Province,0,MA,1608092609,80,29.58,-9.5,12.67,0.45
Sisimiut,6,GL,1608092326,89,66.94,-53.67,-5.67,4.71
Magadan,71,RU,1608092609,85,59.57,150.8,-19.28,7.99
Kupang,75,ID,1608092610,83,-10.17,123.58,29.0,5.7
Kudahuvadhoo,11,MV,1608092610,71,2.67,72.89,27.43,1.24
Touros,40,BR,1608092610,78,-5.2,-35.46,26.0,4.6
Forsytheganj,100,BY,1608092610,99,52.63,29.73,-0.02,3.66
Tuy Hoa,97,VN,1608092610,88,13.08,109.3,25.01,7.44
Ruwi,0,OM,1608092610,67,23.6,58.55,17.0,1.5
Caraballeda,98,VE,1608092611,79,10.61,-66.85,20.56,0.45
Riyadh,0,SA,1608092431,40,24.69,46.72,12.0,3.1
Constitución,0,CL,1608092611,56,-35.33,-72.42,14.11,4.05
Catió,67,GW,1608092611,73,11.28,-15.25,22.57,2.0
Tabou,92,CI,1608092595,86,4.42,-7.35,25.51,3.08
Lincoln,90,US,1608092584,85,40.8,-96.67,-6.0,2.6
Miragoâne,1,HT,1608092612,73,18.44,-73.09,25.03,0.81
Ciudad Guayana,81,VE,1608092612,90,8.35,-62.65,24.44,1.34
